{
  "_comment": "Regional activity seed sets for AIWeather. On first launch, the app picks the nearest region by anchor coordinate (haversine distance) and seeds the user's activity pillows from that region. If no region is within maxDistanceKm, fallbackRegionId is used. Updated via mchatai-source PR; no rebuild required. activityType ∈ {skiing, surfing, sailing, hiking}. icon = SF Symbol on iOS/macOS; Android maps via name match.",
  "version": 1,
  "fallbackRegionId": "pnw",
  "regions": [
    {
      "id": "pnw",
      "name": "Pacific Northwest",
      "anchor": { "lat": 47.6062, "lon": -122.3321 },
      "maxDistanceKm": 400,
      "activities": [
        { "name": "Crystal Mountain", "icon": "skis.fill",        "lat": 46.9360, "lon": -121.4740, "activityType": "skiing"  },
        { "name": "Westport",         "icon": "figure.surfing",   "lat": 46.8906, "lon": -124.1132, "activityType": "surfing" },
        { "name": "Lake Washington",  "icon": "sailboat.fill",    "lat": 47.6253, "lon": -122.2423, "activityType": "sailing" },
        { "name": "Mt Si",            "icon": "figure.hiking",    "lat": 47.5057, "lon": -121.7397, "activityType": "hiking"  }
      ]
    },
    {
      "id": "bay-area",
      "name": "San Francisco Bay Area",
      "anchor": { "lat": 37.7749, "lon": -122.4194 },
      "maxDistanceKm": 250,
      "activities": [
        { "name": "Palisades Tahoe",  "icon": "skis.fill",        "lat": 39.1969, "lon": -120.2353, "activityType": "skiing"  },
        { "name": "Ocean Beach",      "icon": "figure.surfing",   "lat": 37.7556, "lon": -122.5114, "activityType": "surfing" },
        { "name": "San Francisco Bay","icon": "sailboat.fill",    "lat": 37.8044, "lon": -122.4477, "activityType": "sailing" },
        { "name": "Mt Tamalpais",     "icon": "figure.hiking",    "lat": 37.9235, "lon": -122.5965, "activityType": "hiking"  }
      ]
    },
    {
      "id": "socal",
      "name": "Southern California",
      "anchor": { "lat": 34.0522, "lon": -118.2437 },
      "maxDistanceKm": 350,
      "activities": [
        { "name": "Mammoth Mountain", "icon": "skis.fill",        "lat": 37.6308, "lon": -119.0326, "activityType": "skiing"  },
        { "name": "Malibu",           "icon": "figure.surfing",   "lat": 34.0259, "lon": -118.7798, "activityType": "surfing" },
        { "name": "Marina del Rey",   "icon": "sailboat.fill",    "lat": 33.9802, "lon": -118.4517, "activityType": "sailing" },
        { "name": "Mt Baldy",         "icon": "figure.hiking",    "lat": 34.2886, "lon": -117.6464, "activityType": "hiking"  }
      ]
    },
    {
      "id": "ny-tristate",
      "name": "New York Tri-State",
      "anchor": { "lat": 40.7128, "lon": -74.0060 },
      "maxDistanceKm": 200,
      "activities": [
        { "name": "Hunter Mountain",  "icon": "skis.fill",        "lat": 42.1973, "lon": -74.2343, "activityType": "skiing"  },
        { "name": "Rockaway Beach",   "icon": "figure.surfing",   "lat": 40.5832, "lon": -73.8203, "activityType": "surfing" },
        { "name": "Long Island Sound","icon": "sailboat.fill",    "lat": 40.9293, "lon": -73.4126, "activityType": "sailing" },
        { "name": "Bear Mountain",    "icon": "figure.hiking",    "lat": 41.3120, "lon": -73.9886, "activityType": "hiking"  }
      ]
    }
  ]
}
